{"dailygameschedule":{"lastUpdatedOn":"2023-06-09 4:31:40 PM","gameentry":[{"id":"108291","date":"2023-04-17","time":"2:10AM","awayTeam":{"ID":"8","City":"New York","Name":"Islanders","Abbreviation":"NYI"},"homeTeam":{"ID":"3","City":"Carolina","Name":"Hurricanes","Abbreviation":"CAR"},"location":"PNC Arena"},{"id":"108292","date":"2023-04-17","time":"9:45AM","awayTeam":{"ID":"4","City":"Florida","Name":"Panthers","Abbreviation":"FLO"},"homeTeam":{"ID":"11","City":"Boston","Name":"Bruins","Abbreviation":"BOS"},"location":"TD Garden"},{"id":"108293","date":"2023-04-17","time":"10:55AM","awayTeam":{"ID":"25","City":"Minnesota","Name":"Wild","Abbreviation":"MIN"},"homeTeam":{"ID":"27","City":"Dallas","Name":"Stars","Abbreviation":"DAL"},"location":"American Airlines Center"},{"id":"108294","date":"2023-04-17","time":"10:10AM","awayTeam":{"ID":"28","City":"Los Angeles","Name":"Kings","Abbreviation":"LAK"},"homeTeam":{"ID":"24","City":"Edmonton","Name":"Oilers","Abbreviation":"EDM"},"location":"Rogers Place"}]}}