{"fullgameschedule":{"lastUpdatedOn":"2023-06-09 1:36:59 PM","gameentry":[{"id":"79523","date":"2022-10-07","time":"1:20AM","awayTeam":{"ID":"26","City":"San Jose","Name":"Sharks","Abbreviation":"SJS"},"homeTeam":{"ID":"18","City":"Nashville","Name":"Predators","Abbreviation":"NSH"},"location":"O2 Arena"},{"id":"79524","date":"2022-10-08","time":"1:15AM","awayTeam":{"ID":"18","City":"Nashville","Name":"Predators","Abbreviation":"NSH"},"homeTeam":{"ID":"26","City":"San Jose","Name":"Sharks","Abbreviation":"SJS"},"location":"O2 Arena"},{"id":"78206","date":"2022-10-11","time":"3:20AM","awayTeam":{"ID":"1","City":"Tampa Bay","Name":"Lightning","Abbreviation":"TBL"},"homeTeam":{"ID":"9","City":"New York","Name":"Rangers","Abbreviation":"NYR"},"location":"Madison Square Garden"},{"id":"78208","date":"2022-10-11","time":"9:25AM","awayTeam":{"ID":"142","City":"Vegas","Name":"Golden Knights","Abbreviation":"VGK"},"homeTeam":{"ID":"28","City":"Los Angeles","Name":"Kings","Abbreviation":"LAK"},"location":"Crypto.com Arena"},{"id":"78209","date":"2022-10-12","time":"10:50AM","awayTeam":{"ID":"11","City":"Boston","Name":"Bruins","Abbreviation":"BOS"},"homeTeam":{"ID":"5","City":"Washington","Name":"Capitals","Abbreviation":"WSH"},"location":"Capital One Arena"},{"id":"78210","date":"2022-10-12","time":"12:50AM","awayTeam":{"ID":"19","City":"Columbus","Name":"Blue Jackets","Abbreviation":"CBJ"},"homeTeam":{"ID":"3","City":"Carolina","Name":"Hurricanes","Abbreviation":"CAR"},"location":"PNC Arena"},{"id":"78214","date":"2022-10-12","time":"4:05AM","awayTeam":{"ID":"12","City":"Toronto","Name":"Maple Leafs","Abbreviation":"TOR"},"homeTeam":{"ID":"14","City":"Montreal","Name":"Canadiens","Abbreviation":"MTL"},"location":"Bell Centre"},{"id":"78211","date":"2022-10-12","time":"4:20AM","awayTeam":{"ID":"20","City":"Chicago","Name":"Blackhawks","Abbreviation":"CHI"},"homeTeam":{"ID":"22","City":"Colorado","Name":"Avalanche","Abbreviation":"COL"},"location":"Ball Arena"},{"id":"78212","date":"2022-10-12","time":"3:50AM","awayTeam":{"ID":"143","City":"Seattle","Name":"Kraken","Abbreviation":"SEA"},"homeTeam":{"ID":"29","City":"Anaheim","Name":"Ducks","Abbreviation":"ANA"},"location":"Honda Center"},{"id":"78213","date":"2022-10-12","time":"9:35AM","awayTeam":{"ID":"21","City":"Vancouver","Name":"Canucks","Abbreviation":"VAN"},"homeTeam":{"ID":"24","City":"Edmonton","Name":"Oilers","Abbreviation":"EDM"},"location":"Rogers Place"}]}}